"idpoint","latitude","longitude","adresse"
"1","45.9056","5.919","Chemin de la Ravoire, La Ravoire, Val-de-Fier, Vallières-sur-Fier, Annecy, Haute-Savoie, Auvergne-Rhône-Alpes, France métropolitaine, 74150, France"
"2","46.5372","6.2219","Route des Amburnex, Le Chenit, District du Jura-Nord vaudois, Vaud, Schweiz/Suisse/Svizzera/Svizra"
"3","46.019","6.2008","132, Route du Champ, Les Aires, Groisy, Annecy, Haute-Savoie, Auvergne-Rhône-Alpes, France métropolitaine, 74570, France"
"4","46.1997","6.2377","Étoile Gare, Rue Louis Armand, Centre-Ville, Annemasse, Saint-Julien-en-Genevois, Haute-Savoie, Auvergne-Rhône-Alpes, France métropolitaine, 74100, France"
"5","46.3555","6.0367","Route des Places Menoud, Gex, Ain, Auvergne-Rhône-Alpes, France métropolitaine, 01170, France"
"6","46.6337","6.0285","Chemin du Tatchet n°2, Foncine-le-Bas, Lons-le-Saunier, Jura, Bourgogne-Franche-Comté, France métropolitaine, 39520, France"
"7","45.845","5.9756","Chemin des Granges Brûlées, Marlioz, Boussy, Annecy, Haute-Savoie, Auvergne-Rhône-Alpes, France métropolitaine, 74150, France"
"8","46.282","6.3412","Ancien Chemin de Marcorens à Saint-Didier, Ballaison, Thonon-les-Bains, Haute-Savoie, Auvergne-Rhône-Alpes, France métropolitaine, 74140, France"
"9","46.1775","5.9047","Chemin de Martenand, Logras, Péron, Gex, Ain, Auvergne-Rhône-Alpes, France métropolitaine, 01630, France"
"10","46.4927","6.4326","Route de Villars, Etoy, District de Morges, Vaud, 1163, Schweiz/Suisse/Svizzera/Svizra"
"11","46.1015","5.7229","Pré Neyret, Villes, Nantua, Ain, Auvergne-Rhône-Alpes, France métropolitaine, 01200, France"
"12","46.5759","6.3703","Mollens (VD), District de Morges, Vaud, 5431, Schweiz/Suisse/Svizzera/Svizra"
"13","46.529","5.955","Le Mandrillon, Route Forestière de la Joux de Lezat, Les Mouillés, Lézat, Grande-Rivière-Château, Saint-Claude, Jura, Bourgogne-Franche-Comté, France métropolitaine, 39150, France"
"14","46.6212","6.159","D 46, La Maison Michaud, Chapelle-des-Bois, Pontarlier, Doubs, Bourgogne-Franche-Comté, France métropolitaine, 25240, France"
"15","46.273","6.4995","Chemin des Frênes, Monterrebout, Lullin, Thonon-les-Bains, Haute-Savoie, Auvergne-Rhône-Alpes, France métropolitaine, 74470, France"
"16","46.1858","6.578","Les Châlets Blancs, Bellevaux, Thonon-les-Bains, Haute-Savoie, Auvergne-Rhône-Alpes, France métropolitaine, 74470, France"
"17","46.192","6.1088","Avenue du Bois-de-la-Chapelle, Petit-Lancy, Lancy, Genève, 1213, Schweiz/Suisse/Svizzera/Svizra"
"18","45.882","6.3173","Centre de formation aux métiers de la montagne, Route de Tronchine, Le Tréjeux, Thônes, Annecy, Haute-Savoie, Auvergne-Rhône-Alpes, France métropolitaine, 74230, France"
"19","46.3606","5.84","La Pérouse, Villard-Saint-Sauveur, Saint-Claude, Jura, Bourgogne-Franche-Comté, France métropolitaine, 39200, France"
"20","46.0122","5.7891","Route de Dorches, En Trévigne, Contamine, Chanay, Nantua, Ain, Auvergne-Rhône-Alpes, France métropolitaine, 01420, France"
"21","46.2039","5.8544","Route de Forens, Le Grand Essert, Forens, Chézery-Forens, Gex, Ain, Auvergne-Rhône-Alpes, France métropolitaine, 01410, France"
"22","46.51","5.9103","Route Forestière du Bois du Roi, Château-des-Prés, Grande-Rivière-Château, Saint-Claude, Jura, Bourgogne-Franche-Comté, France métropolitaine, 39150, France"
"23","45.9227","5.9845","Route de Lagnat, Lagnat, Vaulx, Annecy, Haute-Savoie, Auvergne-Rhône-Alpes, France métropolitaine, 74150, France"
"24","46.1183","6.1478","Accès à la Grotte d'Archamps, Archamps, Saint-Julien-en-Genevois, Haute-Savoie, Auvergne-Rhône-Alpes, France métropolitaine, 74160, France"
"25","46.6183","6.1682","La Grande-Verrière, Chaux-Neuve, Pontarlier, Doubs, Bourgogne-Franche-Comté, France métropolitaine, 25240, France"
"26","46.0441","6.2538","Route Nationale 203, Etaux, Bonneville, Haute-Savoie, Auvergne-Rhône-Alpes, France métropolitaine, 74800, France"
"27","46.1778","5.9657","Chemin du Vignoble, Challex, Gex, Ain, Auvergne-Rhône-Alpes, France métropolitaine, 01630, France"
"28","46.5913","6.2576","Chemin du Maroc, Le Chenit, District du Jura-Nord vaudois, Vaud, 1341, Schweiz/Suisse/Svizzera/Svizra"
"29","46.4973","6.4458","Chemin des Oiseaux, Lussy-sur-Morges, District de Morges, Vaud, 1167, Schweiz/Suisse/Svizzera/Svizra"
"30","45.7953","6.1087","Aire de bivouac, Route du Semnoz, Chalets du Villard, Leschaux, Annecy, Haute-Savoie, Auvergne-Rhône-Alpes, France métropolitaine, 74320, France"
"31","46.0071","6.2112","248, Route des Regalets, Le Regallet, Thorens-Glières, Fillière, Annecy, Haute-Savoie, Auvergne-Rhône-Alpes, France métropolitaine, 74570, France"
"32","46.2951","5.72","D 25, Pré Verdet, Viry, Saint-Claude, Jura, Bourgogne-Franche-Comté, France métropolitaine, 39360, France"
"33","45.9043","5.9123","Route de Pont Borian, Vers les Champs, Lornay, Annecy, Haute-Savoie, Auvergne-Rhône-Alpes, France métropolitaine, 74150, France"
"34","45.9339","6.429","l'Escale, 33, Chemin du Plein Air, Pré aux Vaches, Le Grand-Bornand, Annecy, Haute-Savoie, Auvergne-Rhône-Alpes, France métropolitaine, 74450, France"
"35","45.7713","6.2216","Route de la Bossière, Arnand, Doussard, Annecy, Haute-Savoie, Auvergne-Rhône-Alpes, France métropolitaine, 74210, France"
"36","46.0195","6.4733","Route de Morsullaz, Morsullaz, Mont-Saxonnex, Bonneville, Haute-Savoie, Auvergne-Rhône-Alpes, France métropolitaine, 74130, France"
"37","46.1904","6.3081","Route de Cortenaz, Malatrait, Cortenaz, Lucinges, Saint-Julien-en-Genevois, Haute-Savoie, Auvergne-Rhône-Alpes, France métropolitaine, 74380, France"
"38","45.9194","6.0908","6, Rue Léon Rey-Grange, Meythet, Annecy, Haute-Savoie, Auvergne-Rhône-Alpes, France métropolitaine, 74960, France"
"39","46.4403","6.2835","Route du Vernay, Luins, District de Nyon, Vaud, 1184, Schweiz/Suisse/Svizzera/Svizra"
"40","46.0197","6.0131","Cercier, Saint-Julien-en-Genevois, Haute-Savoie, Auvergne-Rhône-Alpes, France métropolitaine, 74350, France"
"41","46.0865","5.957","Le Bettet (Est), D 47, Bloux, Dingy-en-Vuache, Saint-Julien-en-Genevois, Haute-Savoie, Auvergne-Rhône-Alpes, France métropolitaine, 74520, France"
"42","46.0046","5.8829","Route de Sevresy, Crumel, Desingy, Saint-Julien-en-Genevois, Haute-Savoie, Auvergne-Rhône-Alpes, France métropolitaine, 74270, France"
"43","46.1089","5.9569","ViaRhôna, Vulbens, Saint-Julien-en-Genevois, Haute-Savoie, Auvergne-Rhône-Alpes, France métropolitaine, 74520, France"
"44","46.173","6.2453","Route de Creuze, Vignes Longues, Creuze, Vétraz-Monthoux, Saint-Julien-en-Genevois, Haute-Savoie, Auvergne-Rhône-Alpes, France métropolitaine, 74100, France"
"45","46.09","6.3908","Chemin du Bois du Ban, Cormand, Bonneville, Haute-Savoie, Auvergne-Rhône-Alpes, France métropolitaine, 74130, France"
"46","46.3984","5.846","Route Forestière Mayet, Avignon-lès-Saint-Claude, Saint-Claude, Jura, Bourgogne-Franche-Comté, France métropolitaine, 39200, France"
"47","46.1577","6.4708","Route de Crêt Morand Mounet, Mounet, Saint-Jeoire, Bonneville, Haute-Savoie, Auvergne-Rhône-Alpes, France métropolitaine, 74490, France"
"48","46.0179","6.2495","Chemin de Nantizel à Borne, Chez Grégoire, Thorens-Glières, Fillière, Annecy, Haute-Savoie, Auvergne-Rhône-Alpes, France métropolitaine, 74570, France"
"49","46.2695","6.4212","Route de la Seyne, Fessy, Thonon-les-Bains, Haute-Savoie, Auvergne-Rhône-Alpes, France métropolitaine, 74890, France"
"50","46.5884","5.9188","D 678, Les Dadonnins, Saint-Pierre, Saint-Claude, Jura, Bourgogne-Franche-Comté, France métropolitaine, 39150, France"
"51","46.1183","5.7429","D 101, Châtillon-en-Michaille, Valserhône, Nantua, Ain, Auvergne-Rhône-Alpes, France métropolitaine, 01200, France"
"52","45.886","6.1859","Sous le Chapeau de Napoléon, Impasse des Michaudes, La Combe, Veyrier-du-Lac, Annecy, Haute-Savoie, Auvergne-Rhône-Alpes, France métropolitaine, 74290, France"
"53","46.2402","6.1855","Bellerive, Collonge-Bellerive, Genève, 1222, Schweiz/Suisse/Svizzera/Svizra"
"54","46.2616","6.0661","Route de Vesegnin, Prévessin-Moëns, Vésegnin, Prévessin, Gex, Ain, Auvergne-Rhône-Alpes, France métropolitaine, 01280, France"
"55","46.2912","6.1551","81, Route de Sauverny, Ecogia, Versoix, Genève, 1290, Schweiz/Suisse/Svizzera/Svizra"
"56","46.3898","5.77","Route de Pratz, Champandré, Lavans-lès-Saint-Claude, Saint-Claude, Jura, Bourgogne-Franche-Comté, France métropolitaine, 39170, France"
"57","45.8187","6.1811","Chemin de Conis, Le Gay, Duingt, Annecy, Haute-Savoie, Auvergne-Rhône-Alpes, France métropolitaine, 74410, France"
"58","45.9002","6.2505","Desserte forestière du Replan, Charvex, La Balme-de-Thuy, Annecy, Haute-Savoie, Auvergne-Rhône-Alpes, France métropolitaine, 74230, France"
"59","46.0687","6.0669","252, Route de Cernex, Charly, Andilly, Saint-Julien-en-Genevois, Haute-Savoie, Auvergne-Rhône-Alpes, France métropolitaine, 74350, France"
"60","46.2571","6.2475","Route de Covéry, Gy, Genève, 1251, Schweiz/Suisse/Svizzera/Svizra"
"61","46.0018","6.117","669, Route du Chef Lieu, Allonzier-la-Caille, Saint-Julien-en-Genevois, Haute-Savoie, Auvergne-Rhône-Alpes, France métropolitaine, 74350, France"
"62","46.0395","6.3336","Route de Pré Jourdan, Saint-Laurent, Bonneville, Haute-Savoie, Auvergne-Rhône-Alpes, France métropolitaine, 74800, France"
"63","46.429","5.936","Le Frênois du Milieu, Saint-Claude, Jura, Bourgogne-Franche-Comté, France métropolitaine, 39200, France"
"64","46.3066","6.2317","Hermance, Genève, 1248, Schweiz/Suisse/Svizzera/Svizra"
"65","46.0471","6.5407","D 4, Neyrolles, Scionzier, Bonneville, Haute-Savoie, Auvergne-Rhône-Alpes, France métropolitaine, 74950, France"
"66","46.02","6.4316","Rosay, Brizon, Bonneville, Haute-Savoie, Auvergne-Rhône-Alpes, France métropolitaine, 74130, France"
"67","46.5246","6.1355","Sentier des Begnines, Arzier-Le Muids, District de Nyon, Vaud, Schweiz/Suisse/Svizzera/Svizra"
"68","46.4247","5.9442","D 304, Crêt Giraud, Saint-Claude, Jura, Bourgogne-Franche-Comté, France métropolitaine, 39200, France"
"69","46.1367","6.2457","Golf Country Club d'Ésery, 28, Allée du Château, Ésery, Reignier-Ésery, Saint-Julien-en-Genevois, Haute-Savoie, Auvergne-Rhône-Alpes, France métropolitaine, 74930, France"
"70","46.5114","5.9943","674, Route des Lattes, Les Lattes, La Mouille, Hauts de Bienne, Saint-Claude, Jura, Bourgogne-Franche-Comté, France métropolitaine, 39400, France"
"71","46.2591","6.1252","25, Chemin de Saint-Oyend, Colovrex, Bellevue, Genève, 1293, Schweiz/Suisse/Svizzera/Svizra"
"72","45.8922","5.8839","Route du Clergeon, Bise et Chavanel, Moye, Annecy, Haute-Savoie, Auvergne-Rhône-Alpes, France métropolitaine, 74150, France"
"73","46.3359","6.4524","D 903, Crêt Tonniaz, Chignens, Allinges, Thonon-les-Bains, Haute-Savoie, Auvergne-Rhône-Alpes, France métropolitaine, 74200, France"
"74","46.3911","6.3978","Thonon-les-Bains, Haute-Savoie, Auvergne-Rhône-Alpes, France métropolitaine, France"
"75","46.2342","5.9376","Sentier des Gardes, Ancien Sentier des Gardes, Thoiry, Gex, Ain, Auvergne-Rhône-Alpes, France métropolitaine, 01710, France"
"76","46.3834","6.5444","Impasse des Fours, La Bennaz, Amphion-les-Bains, Publier, Thonon-les-Bains, Haute-Savoie, Auvergne-Rhône-Alpes, France métropolitaine, 74500, France"
"77","46.3249","6.382","Avenue de l'Église, Excuvilly, Sciez, Thonon-les-Bains, Haute-Savoie, Auvergne-Rhône-Alpes, France métropolitaine, 74140, France"
"78","45.9646","6.3698","La Revoue, Le Talavé, Le Petit-Bornand-les-Glières, Glières-Val-de-Borne, Bonneville, Haute-Savoie, Auvergne-Rhône-Alpes, France métropolitaine, 74130, France"
"79","46.3297","6.182","23, Chemin des Fontaines, Founex, District de Nyon, Vaud, 1297, Schweiz/Suisse/Svizzera/Svizra"
"80","45.9813","6.1239","Route de Burgaz, Les Voisins, Fregnard, Saint-Martin-Bellevue, Fillière, Annecy, Haute-Savoie, Auvergne-Rhône-Alpes, France métropolitaine, 74370, France"
"81","46.3615","6.3241","Stade d'Yvoire, Chemin de Feycler, Les Chenallets, Yvoire, Thonon-les-Bains, Haute-Savoie, Auvergne-Rhône-Alpes, France métropolitaine, 74140, France"
"82","46.5957","6.2317","Route du Campe, L'Orient, Le Chenit, District du Jura-Nord vaudois, Vaud, 1341, Schweiz/Suisse/Svizzera/Svizra"
"101","46.0869","6.5667","Route de Marignier, Larroz, Châtillon-sur-Cluses, Bonneville, Haute-Savoie, Auvergne-Rhône-Alpes, France métropolitaine, 74300, France"
"102","46.3939","5.7743","D 118E2, Le Patey, Saint-Lupicin, Coteaux du Lizon, Saint-Claude, Jura, Bourgogne-Franche-Comté, France métropolitaine, 39170, France"
"103","46.2097","5.9659","Rue Grand Route, Saint-Jean-de-Gonville, Gex, Ain, Auvergne-Rhône-Alpes, France métropolitaine, 01630, France"
"104","46.4598","6.0747","84, Route de France, La Cure, Saint-Cergue, District de Nyon, Vaud, 1265, Schweiz/Suisse/Svizzera/Svizra"
"105","45.9275","5.7954","Moiret, Anglefort, Belley, Ain, Auvergne-Rhône-Alpes, France métropolitaine, 01350, France"
"106","46.0784","6.496","Faucigny Auto Pièce, 1466, Avenue du Stade, Marignier, Bonneville, Haute-Savoie, Auvergne-Rhône-Alpes, France métropolitaine, 74970, France"
"107","45.922","6.4077","Route de Thônes, Les Faux, Saint-Jean-de-Sixt, Annecy, Haute-Savoie, Auvergne-Rhône-Alpes, France métropolitaine, 74450, France"
"108","46.4517","6.3046","Chemin du Pré-Froment, Gilly, District de Nyon, Vaud, 1182, Schweiz/Suisse/Svizzera/Svizra"
"109","46.2735","6.0666","Golf de la Manchette, Impasse du Lion, Prévessin-Moëns, Vésegnin, Prévessin, Gex, Ain, Auvergne-Rhône-Alpes, France métropolitaine, 01280, France"
"110","45.9752","5.8225","Chemin Sous La Roche, Eilloux, Corbonod, Belley, Ain, Auvergne-Rhône-Alpes, France métropolitaine, 01420, France"
"111","46.5209","5.851","Chemin des Belbenoits, Les Alabouvettes, Les Belbenoits, Prénovel, Nanchez, Saint-Claude, Jura, Bourgogne-Franche-Comté, France métropolitaine, 39150, France"
"112","45.8522","6.0048","Impasse de la Tire, Chonu, Marcellaz-Albanais, Annecy, Haute-Savoie, Auvergne-Rhône-Alpes, France métropolitaine, 74150, France"
"113","46.3698","5.811","Rue des Monderets, Chevry, Saint-Claude, Jura, Bourgogne-Franche-Comté, France métropolitaine, 39200, France"
"114","46.263","6.4665","670, Route de Chez Paccot, Chez Paccot, Habère-Poche, Thonon-les-Bains, Haute-Savoie, Auvergne-Rhône-Alpes, France métropolitaine, 74420, France"
"115","46.4078","6.3765","Thonon-les-Bains, Haute-Savoie, Auvergne-Rhône-Alpes, France métropolitaine, France"
"116","46.3937","5.9139","Route de Chaumont, les Curtils, Chaumont, Saint-Claude, Jura, Bourgogne-Franche-Comté, France métropolitaine, 39200, France"
"117","46.5357","6.4288","Chardonney-Château, Chemin des Ennettes, Bussy-Chardonney, Hautemorges, District de Morges, Vaud, 1136, Schweiz/Suisse/Svizzera/Svizra"
"118","46.4828","5.9027","D 437, Villard-sur-Bienne, Nanchez, Saint-Claude, Jura, Bourgogne-Franche-Comté, France métropolitaine, 39200, France"
"119","45.919","6.0993","36, Rue de l'Aérodrome, Le Clos Village, Meythet, Annecy, Haute-Savoie, Auvergne-Rhône-Alpes, France métropolitaine, 74960, France"
"120","46.5508","6.2587","Route du Col du Marchairuz, Gimel, District de Morges, Vaud, 1188, Schweiz/Suisse/Svizzera/Svizra"
"121","46.4427","5.9209","Pissard, Longchaumois, Saint-Claude, Jura, Bourgogne-Franche-Comté, France métropolitaine, 39400, France"
"122","46.4408","6.0808","Route de la Faucille, Tabagnoz, Prémanon, Saint-Claude, Jura, Bourgogne-Franche-Comté, France métropolitaine, 39220, France"
"123","46.0358","6.37","Le Planet, Route de la Forêt, Saint-Laurent, Bonneville, Haute-Savoie, Auvergne-Rhône-Alpes, France métropolitaine, 74800, France"
"124","45.823","6.167","152, Impasse du Bouchet, La Rive, Machevaz, Saint-Jorioz, Annecy, Haute-Savoie, Auvergne-Rhône-Alpes, France métropolitaine, 74410, France"
"125","46.3172","5.7812","D 63, Vulvoz, Saint-Claude, Jura, Bourgogne-Franche-Comté, France métropolitaine, 39360, France"
"126","46.2578","6.3668","Route des Charmottes d'en Bas, Les Prés de la Colombière, Graizier, Bons-en-Chablais, Thonon-les-Bains, Haute-Savoie, Auvergne-Rhône-Alpes, France métropolitaine, 74890, France"
"127","46.187","5.7718","La Combert, Montanges, Nantua, Ain, Auvergne-Rhône-Alpes, France métropolitaine, 01200, France"
"128","46.0014","5.9766","Route de Planaise, Chilly, Saint-Julien-en-Genevois, Haute-Savoie, Auvergne-Rhône-Alpes, France métropolitaine, 74270, France"
"129","46.0555","6.5091","Route du Mont-Saxonnex, Blanzy, Marnaz, Bonneville, Haute-Savoie, Auvergne-Rhône-Alpes, France métropolitaine, 74460, France"
"130","46.097","6.1241","Chemin de la Thuile, Les Travers, Beaumont, Saint-Julien-en-Genevois, Haute-Savoie, Auvergne-Rhône-Alpes, France métropolitaine, 74160, France"
"131","46.3051","5.7855","Chemin de la Cheneau, Sous Cuchet, Choux, Saint-Claude, Jura, Bourgogne-Franche-Comté, France métropolitaine, 39370, France"
"132","46.4268","5.893","La Blénière, Cinquétral, Saint-Claude, Jura, Bourgogne-Franche-Comté, France métropolitaine, 39200, France"
"133","45.8459","5.9523","67, Route d'Aix-les-Bains, Martenex, Rumilly, Annecy, Haute-Savoie, Auvergne-Rhône-Alpes, France métropolitaine, 74150, France"
"134","46.3888","5.7419","D 470, Pratz, Lavans-lès-Saint-Claude, Saint-Claude, Jura, Bourgogne-Franche-Comté, France métropolitaine, 39170, France"
"201","45.957","5.9457","Route de Foraz, Foraz, Menthonnex-sous-Clermont, Saint-Julien-en-Genevois, Haute-Savoie, Auvergne-Rhône-Alpes, France métropolitaine, 74270, France"
"202","46.3978","6.3852","Thonon-les-Bains, Haute-Savoie, Auvergne-Rhône-Alpes, France métropolitaine, France"
"203","46.3143","5.8793","La Grande Molune, D 25, Le Crêté, Les Moussières, Saint-Claude, Jura, Bourgogne-Franche-Comté, France métropolitaine, 39310, France"
"204","46.3743","6.4139","Les Balises, Anthy-sur-Léman, Thonon-les-Bains, Haute-Savoie, Auvergne-Rhône-Alpes, France métropolitaine, 74200, France"
"205","46.3261","6.0337","Route du Jet de la Reine, Gex, Ain, Auvergne-Rhône-Alpes, France métropolitaine, 01170, France"
"206","46.2548","6.2293","Chemin de Saint-Louis, Meinier, Genève, 1252, Schweiz/Suisse/Svizzera/Svizra"
"207","46.5695","6.3536","Route de Forchy, Mollens (VD), District de Morges, Vaud, 5431, Schweiz/Suisse/Svizzera/Svizra"
"208","46.1023","6.3423","Route des Îles, Arenthon, Bonneville, Haute-Savoie, Auvergne-Rhône-Alpes, France métropolitaine, 74800, France"
"209","46.2076","6.5377","Chemin des Jottis, Les Jottys, Mégevette, Bonneville, Haute-Savoie, Auvergne-Rhône-Alpes, France métropolitaine, 74490, France"
"210","45.7965","6.1391","Route du Col de Leschaux, Les Grobes, Saint-Eustache, Annecy, Haute-Savoie, Auvergne-Rhône-Alpes, France métropolitaine, 74410, France"
"211","46.2894","6.2087","Anières, Genève, 1247, Schweiz/Suisse/Svizzera/Svizra"
"212","46.4042","6.3013","Le Léman (VD), Vaud, Schweiz/Suisse/Svizzera/Svizra"
"213","46.5905","6.2608","Poêle Chaud, Chemin du Maroc, Le Chenit, District du Jura-Nord vaudois, Vaud, 1341, Schweiz/Suisse/Svizzera/Svizra"
"214","46.2874","6.2993","Chemin des Tattes de Chilly, Loisin, Thonon-les-Bains, Haute-Savoie, Auvergne-Rhône-Alpes, France métropolitaine, 74140, France"
"215","46.202","5.7802","C 11, Champfromier, Nantua, Ain, Auvergne-Rhône-Alpes, France métropolitaine, 01410, France"
"216","46.5279","6.3308","Route de Tivoli, Bière, District de Morges, Vaud, 1145, Schweiz/Suisse/Svizzera/Svizra"
"217","46.4504","6.1707","12, Chemin de la Ferme, Saint-Cergue, District de Nyon, Vaud, 1264, Schweiz/Suisse/Svizzera/Svizra"
"218","46.52","6.4544","Route Cantonale, Denens, District de Morges, Vaud, 1135, Schweiz/Suisse/Svizzera/Svizra"
"219","46.314","6.2735","Route du Lac, Chens-sur-Léman, Thonon-les-Bains, Haute-Savoie, Auvergne-Rhône-Alpes, France métropolitaine, 74140, France"
"220","46.2894","6.292","Chemin des Tattes de Chilly, Loisin, Thonon-les-Bains, Haute-Savoie, Auvergne-Rhône-Alpes, France métropolitaine, 74140, France"
"221","46.0528","5.8147","Barrage de Génissiat, Rue Marcel Paul, Génissiat, Franclens, Saint-Julien-en-Genevois, Haute-Savoie, Auvergne-Rhône-Alpes, France métropolitaine, 74910, France"
"222","46.1742","6.5142","Montée de la Gire, Tigny, Onnion, Bonneville, Haute-Savoie, Auvergne-Rhône-Alpes, France métropolitaine, 74490, France"
"223","46.4162","6.5027","Saint-Disdille, Thonon-les-Bains, Haute-Savoie, Auvergne-Rhône-Alpes, France métropolitaine, 74200, France"
"224","45.9458","6.1057","15, Chemin du Tremblay, Clos de Tessy, La Villa Trévi, Metz-Tessy, Épagny Metz-Tessy, Annecy, Haute-Savoie, Auvergne-Rhône-Alpes, France métropolitaine, 74370, France"
"225","46.1689","5.9431","Logras, Péron, Gex, Ain, Auvergne-Rhône-Alpes, France métropolitaine, 01630, France"
"226","46.0322","6.4687","Route de Morsullaz, Morsullaz, Mont-Saxonnex, Bonneville, Haute-Savoie, Auvergne-Rhône-Alpes, France métropolitaine, 74130, France"
"227","46.1139","6.0634","Route de Songy, Grossaz, Feigères, Saint-Julien-en-Genevois, Haute-Savoie, Auvergne-Rhône-Alpes, France métropolitaine, 74160, France"
"228","46.1414","5.7765","Route de l'Hermette, Le Topet, Ardon, Châtillon-en-Michaille, Valserhône, Nantua, Ain, Auvergne-Rhône-Alpes, France métropolitaine, 01200, France"
"229","46.5852","6.0451","39400, Les Lattes, La Mouille, Hauts de Bienne, Bourgogne-Franche-Comté, France métropolitaine, France"
"230","46.2431","5.7555","Rue du Crozat, Échallon, Nantua, Ain, Auvergne-Rhône-Alpes, France métropolitaine, 01130, France"
"231","45.9198","5.8538","Point de Vue, Chemin Rural des Trois Mulets, Landernier, Motz, Chambéry, Savoie, Auvergne-Rhône-Alpes, France métropolitaine, 73310, France"
"232","45.8899","5.8334","La Léchère, La Chetraz, Serrières-en-Chautagne, Chambéry, Savoie, Auvergne-Rhône-Alpes, France métropolitaine, 73310, France"
"233","46.0665","6.1837","Le Milanroyal dans le paysage agricole, Chemin rural des Mottières, L'Épine, Menthonnex-en-Bornes, Saint-Julien-en-Genevois, Haute-Savoie, Auvergne-Rhône-Alpes, France métropolitaine, 74350, France"
"234","46.0613","6.0559","Boucle du Nant Trouble, Saint-Symphorien, Charly, Cernex, Saint-Julien-en-Genevois, Haute-Savoie, Auvergne-Rhône-Alpes, France métropolitaine, 74350, France"
"235","46.4693","6.3497","A1, Perroy, District de Nyon, Vaud, 1166, Schweiz/Suisse/Svizzera/Svizra"
"236","46.0504","6.0241","Chemin de Létraz, Létraz, Chavannaz, Saint-Julien-en-Genevois, Haute-Savoie, Auvergne-Rhône-Alpes, France métropolitaine, 74270, France"
"237","46.3083","6.1127","Route de l'Église, Sauverny, Gex, Ain, Auvergne-Rhône-Alpes, France métropolitaine, 01220, France"
"238","46.1514","6.4851","Chemin du Cruz, Les Evaux, Mieussy, Bonneville, Haute-Savoie, Auvergne-Rhône-Alpes, France métropolitaine, 74440, France"
"239","46.4005","6.0389","Quartier La Combe En Haut, Lajoux, Saint-Claude, Jura, Bourgogne-Franche-Comté, France métropolitaine, 01410, France"
"240","46.301","5.8361","D 25 E1, Sous le Truffet, La Pesse, Saint-Claude, Jura, Bourgogne-Franche-Comté, France métropolitaine, 39370, France"
"241","45.8287","6.3938","Plan des Mouilles, Le Bouchet-Mont-Charvin, Annecy, Haute-Savoie, Auvergne-Rhône-Alpes, France métropolitaine, 74230, France"
"242","46.3385","6.2059","12, Chemin de la Marjolaine, Founex, District de Nyon, Vaud, 1297, Schweiz/Suisse/Svizzera/Svizra"
"243","46.2511","6.1287","Chemin du Colard, Colovrex, Bellevue, Genève, 1293, Schweiz/Suisse/Svizzera/Svizra"
"244","46.0978","6.2145","Chemin du Sel, Arbusigny, Saint-Julien-en-Genevois, Haute-Savoie, Auvergne-Rhône-Alpes, France métropolitaine, 74930, France"
"245","46.079","6.1897","Route du Biollay, La Grange, Arbusigny, Saint-Julien-en-Genevois, Haute-Savoie, Auvergne-Rhône-Alpes, France métropolitaine, 74930, France"
"246","46.2953","6.0697","131, Rue du Journans, Ségny, Gex, Ain, Auvergne-Rhône-Alpes, France métropolitaine, 01170, France"
"247","46.2111","5.8926","Route de Rosset, Rosset, Chézery-Forens, Gex, Ain, Auvergne-Rhône-Alpes, France métropolitaine, 01410, France"
"248","46.4714","6.0128","Chemin des Crottes, Sous les Pellas, Prémanon, Saint-Claude, Jura, Bourgogne-Franche-Comté, France métropolitaine, 39220, France"
"249","46.2203","6.3348","Route du Fieu, Saint-Cergues, Saint-Julien-en-Genevois, Haute-Savoie, Auvergne-Rhône-Alpes, France métropolitaine, 74140, France"
"250","46.2911","6.2199","Les Roches, Anières, Genève, 1247, Schweiz/Suisse/Svizzera/Svizra"
"251","46.3807","6.2658","Le Léman (VD), Vaud, Schweiz/Suisse/Svizzera/Svizra"
"252","46.5415","5.9049","Les Bouviers, Grande-Rivière, Grande-Rivière-Château, Saint-Claude, Jura, Bourgogne-Franche-Comté, France métropolitaine, 39150, France"
"253","46.5794","5.9915","Chemin du Fromaget, Lac-des-Rouges-Truites, Saint-Claude, Jura, Bourgogne-Franche-Comté, France métropolitaine, 39150, France"
"254","46.3659","6.3192","Chemin de Margueret, Le Bossenaz, Yvoire, Thonon-les-Bains, Haute-Savoie, Auvergne-Rhône-Alpes, France métropolitaine, 74140, France"
"255","45.9442","5.7912","Route de Sur Lyand, Gignez, Corbonod, Belley, Ain, Auvergne-Rhône-Alpes, France métropolitaine, 01420, France"
"256","46.3416","5.8055","Route Sur Ciry, Sur Ciry, Larrivoire, Saint-Claude, Jura, Bourgogne-Franche-Comté, France métropolitaine, 39360, France"
"257","46.1977","6.2874","Voie Verte, Champs de Thonon, Rosses, Cranves-Sales, Saint-Julien-en-Genevois, Haute-Savoie, Auvergne-Rhône-Alpes, France métropolitaine, 74380, France"
"258","46.3203","6.2309","Thonon-les-Bains, Haute-Savoie, Auvergne-Rhône-Alpes, France métropolitaine, France"
"259","46.1057","5.933","Vulbens, Saint-Julien-en-Genevois, Haute-Savoie, Auvergne-Rhône-Alpes, France métropolitaine, 74520, France"
"260","46.2652","6.5446","Route des Chalets de la Buchille, Chalets de la Buchille, Bellevaux, Thonon-les-Bains, Haute-Savoie, Auvergne-Rhône-Alpes, France métropolitaine, 74470, France"
"261","46.4882","5.9658","D 69, Les Baptaillards, La Mouille, Longchaumois, Saint-Claude, Jura, Bourgogne-Franche-Comté, France métropolitaine, 39400, France"
"262","45.9863","6.4355","Chemin du Pont de Lessy, Chalets De Lessy, Le Petit-Bornand-les-Glières, Glières-Val-de-Borne, Bonneville, Haute-Savoie, Auvergne-Rhône-Alpes, France métropolitaine, 74130, France"
"263","45.9119","5.9901","Route d'Hauteville, Belossy, Vaulx, Annecy, Haute-Savoie, Auvergne-Rhône-Alpes, France métropolitaine, 74150, France"
"264","46.065","6.2866","Route de la Chapelle Rambaud, Les Sages, Eteaux, Etaux, Bonneville, Haute-Savoie, Auvergne-Rhône-Alpes, France métropolitaine, 74800, France"
"265","45.8551","6.4235","Route de Comburce, Comburce, Manigod, Annecy, Haute-Savoie, Auvergne-Rhône-Alpes, France métropolitaine, 74230, France"
"266","46.2464","5.7504","La Folie du Clos, Échallon, Nantua, Ain, Auvergne-Rhône-Alpes, France métropolitaine, 01130, France"
"267","45.8824","6.2743","Refuge Le Lindion, Chemin du Cruet, Le Cruet, La Balme-de-Thuy, Annecy, Haute-Savoie, Auvergne-Rhône-Alpes, France métropolitaine, 74230, France"
"268","46.3862","5.9379","D 436, Les Loges d'Arbez, Septmoncel, Septmoncel les Molunes, Saint-Claude, Jura, Bourgogne-Franche-Comté, France métropolitaine, 39310, France"
"269","45.9732","6.424","Route de la Culaz, Les Faux, Le Grand-Bornand, Annecy, Haute-Savoie, Auvergne-Rhône-Alpes, France métropolitaine, 74450, France"
"270","46.539","5.9673","Chemin de la Porte, Saint-Laurent-en-Grandvaux, Saint-Claude, Jura, Bourgogne-Franche-Comté, France métropolitaine, 39150, France"
"271","46.585","6.3376","VTT piste ""Coeur rouge"", Mollens (VD), District de Morges, Vaud, 5431, Schweiz/Suisse/Svizzera/Svizra"
"272","46.2537","6.0699","162, Route de Mategnin, Prévessin-Moëns, Prévessin, Gex, Ain, Auvergne-Rhône-Alpes, France métropolitaine, 01280, France"
"273","45.8741","6.1137","Chemin de Sainte-Catherine, Le Couvent, Annecy, Haute-Savoie, Auvergne-Rhône-Alpes, France métropolitaine, 74000, France"
"274","45.906","6.0536","Chemin des Bois, Pessey, Poisy, Annecy, Haute-Savoie, Auvergne-Rhône-Alpes, France métropolitaine, 74330, France"
"275","46.1355","5.9346","Les Iles, Collonges, Gex, Ain, Auvergne-Rhône-Alpes, France métropolitaine, 01550, France"
"276","46.0493","6.4325","254, Sentier de l'Entour du Cez, Les Saillets, Brizon, Bonneville, Haute-Savoie, Auvergne-Rhône-Alpes, France métropolitaine, 74130, France"
"277","46.4483","6.2224","Route de Le Muids, Le Muids, Arzier-Le Muids, District de Nyon, Vaud, 1272, Schweiz/Suisse/Svizzera/Svizra"
"278","46.2334","6.1918","Route de Thonon, La Belotte, Cologny, Genève, 1223, Schweiz/Suisse/Svizzera/Svizra"
"279","45.9021","5.8748","74150, Gaudin, Sales, Annecy, Auvergne-Rhône-Alpes, France métropolitaine, France"
"280","46.3166","6.3348","École primaire de Massongy, Chemin de Brue, Le Banset, Massongy, Thonon-les-Bains, Haute-Savoie, Auvergne-Rhône-Alpes, France métropolitaine, 74140, France"
"281","46.3489","5.836","D 124, La Palud, Coiserette, Saint-Claude, Jura, Bourgogne-Franche-Comté, France métropolitaine, 39200, France"
"282","46.3316","6.2647","Rue des Pêcheurs, Chens-sur-Léman, Thonon-les-Bains, Haute-Savoie, Auvergne-Rhône-Alpes, France métropolitaine, 74140, France"
"501","46.1969","6.1511","Conservatory Popular Music, Dance And Theater, 7, Rue François-D'Ivernois, Cité, Genève, 1205, Schweiz/Suisse/Svizzera/Svizra"
"502","46.1761","6.1579","Route de Veyrier, Vessy, Veyrier, Genève, 1234, Schweiz/Suisse/Svizzera/Svizra"
"503","46.2006","6.1244","2, Route des péniches, Jonction, Genève, 1203, Schweiz/Suisse/Svizzera/Svizra"
"504","46.198","6.1158","96, Route de Saint-Georges, Petit-Lancy, Lancy, Genève, 1213, Schweiz/Suisse/Svizzera/Svizra"
"505","46.2241","6.1648","Sécheron, Pâquis, Genève, 1202, Schweiz/Suisse/Svizzera/Svizra"
"506","46.1728","6.139","Route de Drize, Pinchat, La Praille, Carouge, Genève, 1234, Schweiz/Suisse/Svizzera/Svizra"
"507","46.2029","6.1755","Chemin Frank-Thomas, Cologny, Genève, 1208, Schweiz/Suisse/Svizzera/Svizra"
"508","46.1843","6.1429","8, Rue de Veyrier, Val d'Arve, La Praille, Carouge, Genève, 1227, Schweiz/Suisse/Svizzera/Svizra"
"509","46.2204","6.1531","Rue de Lausanne, Sécheron, Pâquis, Genève, 1202, Schweiz/Suisse/Svizzera/Svizra"
"510","46.194","6.133","Centre sportif des Vernets, Quai Ernest-Ansermet, Jonction, Genève, 1200, Schweiz/Suisse/Svizzera/Svizra"
"511","46.1879","6.1395","3, Rue des Allobroges, Acacias, Carouge, Genève, 1227, Schweiz/Suisse/Svizzera/Svizra"
"512","46.2008","6.167","12, Avenue de la Gare-des-Eaux-Vives, Les Eaux-Vives, Eaux-Vives, Genève, 1207, Schweiz/Suisse/Svizzera/Svizra"
"513","46.2012","6.1462","13, Rue des Granges, Cité, Genève, 1204, Schweiz/Suisse/Svizzera/Svizra"
"514","46.1804","6.1614","Route de Vessy, Vessy, Veyrier, Genève, 1206, Schweiz/Suisse/Svizzera/Svizra"
"515","46.1767","6.1351","Collège et Ecole de Culture Générale Madame-de-Staël, Route de Saint-Julien, La Praille, Carouge, Genève, 1227, Schweiz/Suisse/Svizzera/Svizra"
"516","46.2106","6.1431","Place de Cornavin, Grottes et Saint-Gervais, Genève, 1201, Schweiz/Suisse/Svizzera/Svizra"
"517","46.2191","6.1253","Avenue Trembley, Moillebeau, Petit-Saconnex et Servette, Genève, 1209, Schweiz/Suisse/Svizzera/Svizra"
"518","46.1871","6.1671","Route de Florissant, Malagnou, Chêne-Bougeries, Genève, 1231, Schweiz/Suisse/Svizzera/Svizra"
"519","46.2111","6.1212","Avenue Soret, La Servette, Petit-Saconnex et Servette, Genève, 1203, Schweiz/Suisse/Svizzera/Svizra"
"520","46.2324","6.1331","Avenue principale OMS, Pregny, Pregny-Chambésy, Genève, 1292, Schweiz/Suisse/Svizzera/Svizra"
"521","46.1979","6.1708","24, Chemin de la Petite-Boissière, Les Eaux-Vives, Eaux-Vives, Genève, 1208, Schweiz/Suisse/Svizzera/Svizra"
"522","46.1942","6.1282","Voie Centrale, Les Acacias, Acacias, Genève, 1200, Schweiz/Suisse/Svizzera/Svizra"
"523","46.1818","6.1655","50, Route de Vessy, Vessy, Veyrier, Genève, 1231, Schweiz/Suisse/Svizzera/Svizra"
"524","46.2268","6.1384","École Hôteliere de Genève, Route de Pregny, Pâquis, Genève, 1202, Schweiz/Suisse/Svizzera/Svizra"
"525","46.1712","6.1419","Chemin des Galéides, Vessy, Veyrier, Genève, 1234, Schweiz/Suisse/Svizzera/Svizra"
"526","46.1911","6.1683","18a, Chemin du Velours, Florissant, Champel, Genève, 1208, Schweiz/Suisse/Svizzera/Svizra"
"527","46.2138","6.1438","Montbrillant, 36, Rue de Montbrillant, Les Pâquis, Pâquis, Genève, 1201, Schweiz/Suisse/Svizzera/Svizra"
"528","46.2251","6.1737","Port Tunnel, Cologny, Genève, 1223, Schweiz/Suisse/Svizzera/Svizra"
"529","46.2154","6.1712","Port de La Nautique, Quai Gustave-Ador, Frontenex, Eaux-Vives, Cologny, Genève, 1223, Schweiz/Suisse/Svizzera/Svizra"
"530","46.1673","6.1502","49, Chemin Jean-Jacques-Asper, Le Parc des Crêts, Troinex, Genève, 1256, Schweiz/Suisse/Svizzera/Svizra"
"531","46.2097","6.1247","6a, Rue de Bourgogne, Saint-Jean et Charmilles, Genève, 1203, Schweiz/Suisse/Svizzera/Svizra"
"532","46.2085","6.1543","Quai du Mont-Blanc, Les Pâquis, Pâquis, Genève, 1201, Schweiz/Suisse/Svizzera/Svizra"
"533","46.2075","6.1295","26, Rue des Charmilles, Saint-Jean et Charmilles, Genève, 8973, Schweiz/Suisse/Svizzera/Svizra"
"534","46.1697","6.1565","47, Chemin de Place-Verte, Vessy, Veyrier, Genève, 1256, Schweiz/Suisse/Svizzera/Svizra"
"535","46.2109","6.1393","Rue de la Sibérie, Grottes et Saint-Gervais, Genève, 1201, Schweiz/Suisse/Svizzera/Svizra"
"536","46.2213","6.1185","43bis, Avenue Trembley, Le Petit-Saconnex, Petit-Saconnex et Servette, Genève, 1209, Schweiz/Suisse/Svizzera/Svizra"
"537","46.2221","6.126","15, Chemin des Crêts, Le Petit-Saconnex, Petit-Saconnex et Servette, Genève, 1209, Schweiz/Suisse/Svizzera/Svizra"
"538","46.1767","6.1593","Route de Veyrier, Vessy, Veyrier, Genève, 1234, Schweiz/Suisse/Svizzera/Svizra"
"539","46.1945","6.1736","111, Route de Malagnou, Malagnou, Chêne-Bougeries, Genève, 1231, Schweiz/Suisse/Svizzera/Svizra"
"540","46.1878","6.1154","Chemin du Gué, Petit-Lancy, Lancy, Genève, 1213, Schweiz/Suisse/Svizzera/Svizra"
"541","46.1852","6.1437","Avenue Cardinal-Mermillod, Val d'Arve, La Praille, Carouge, Genève, 1227, Schweiz/Suisse/Svizzera/Svizra"
"542","46.1911","6.1208","15, Route de Chancy, Petit-Lancy, Lancy, Genève, 1213, Schweiz/Suisse/Svizzera/Svizra"
"543","46.1918","6.1687","Cycle d'orientation de la Florence, Chemin de la Florence, Florissant, Champel, Genève, 1208, Schweiz/Suisse/Svizzera/Svizra"
"544","46.1781","6.1462","Chemin Charles-Poluzzi, Pinchat, La Praille, Carouge, Genève, 1234, Schweiz/Suisse/Svizzera/Svizra"
"545","46.1926","6.137","11bis, Route des Acacias, Les Acacias, Acacias, Genève, 1200, Schweiz/Suisse/Svizzera/Svizra"
"546","46.2114","6.1494","Qafé Guidoline -- (La Guidoline), 24, Rue des Pâquis, Les Pâquis, Pâquis, Genève, 1201, Schweiz/Suisse/Svizzera/Svizra"
"547","46.2034","6.1671","65, Route de Frontenex, Les Eaux-Vives, Eaux-Vives, Genève, 1208, Schweiz/Suisse/Svizzera/Svizra"
"548","46.2219","6.1641","Sécheron, Pâquis, Genève, 1202, Schweiz/Suisse/Svizzera/Svizra"
"549","46.2199","6.1513","Rue de Lausanne, Sécheron, Pâquis, Genève, 1202, Schweiz/Suisse/Svizzera/Svizra"
"550","46.1774","6.1391","Université Battelle, Route de Troinex, Pinchat, La Praille, Carouge, Genève, 1234, Schweiz/Suisse/Svizzera/Svizra"
"551","46.1741","6.1666","10, Chemin du Soujet, Vessy, Veyrier, Genève, 1255, Schweiz/Suisse/Svizzera/Svizra"
"552","46.2116","6.128","Avenue Wendt, La Servette, Petit-Saconnex et Servette, Genève, 1211, Schweiz/Suisse/Svizzera/Svizra"
"553","46.1667","6.147","Avenue des Crêts, Troinex, Genève, 1256, Schweiz/Suisse/Svizzera/Svizra"
"554","46.194","6.1483","Urgences Adultes, 4, Rue Gabrielle-Perret-Gentil, Plainpalais, Genève, 1205, Schweiz/Suisse/Svizzera/Svizra"
"555","46.2086","6.1637","Quai Gustave-Ador, Les Eaux-Vives, Eaux-Vives, Genève, 1207, Schweiz/Suisse/Svizzera/Svizra"
"556","46.196","6.1748","Chemin Castoldi, Malagnou, Chêne-Bougeries, Genève, 1231, Schweiz/Suisse/Svizzera/Svizra"
"557","46.1892","6.1727","Avenue Paul-Chaix, Malagnou, Chêne-Bougeries, Genève, 1231, Schweiz/Suisse/Svizzera/Svizra"
"558","46.225","6.1695","Port Tunnel, Cologny, Genève, 1223, Schweiz/Suisse/Svizzera/Svizra"
"559","46.2248","6.1564","Rue de Lausanne, Sécheron, Pâquis, Genève, 1202, Schweiz/Suisse/Svizzera/Svizra"
"560","46.1873","6.1287","Rue Subilia, La Praille, Carouge, Genève, 1227, Schweiz/Suisse/Svizzera/Svizra"
"561","46.2081","6.1656","Les Eaux-Vives, Eaux-Vives, Genève, 1208, Schweiz/Suisse/Svizzera/Svizra"
"562","46.1955","6.1213","Route de Saint-Georges, Petit-Lancy, Lancy, Genève, 1203, Schweiz/Suisse/Svizzera/Svizra"
"563","46.1961","6.175","Chemin Castoldi, Malagnou, Chêne-Bougeries, Genève, 1231, Schweiz/Suisse/Svizzera/Svizra"
"564","46.2245","6.1513","Rue de Lausanne, Sécheron, Pâquis, Genève, 1202, Schweiz/Suisse/Svizzera/Svizra"
"565","46.1821","6.1644","Chemin du Pacage, Vessy, Veyrier, Genève, 1206, Schweiz/Suisse/Svizzera/Svizra"
"566","46.2118","6.1255","15, Avenue Ernest-Pictet, La Servette, Petit-Saconnex et Servette, Genève, 1203, Schweiz/Suisse/Svizzera/Svizra"
"567","46.1891","6.1793","Chemin de la Colombe, Malagnou, Chêne-Bougeries, Genève, 1231, Schweiz/Suisse/Svizzera/Svizra"
"568","46.2018","6.1596","2, Rue du Nant, Les Eaux-Vives, Eaux-Vives, Genève, 1207, Schweiz/Suisse/Svizzera/Svizra"
"569","46.2195","6.1209","29, Chemin Charles-Georg, Le Petit-Saconnex, Petit-Saconnex et Servette, Genève, 1209, Schweiz/Suisse/Svizzera/Svizra"
"570","46.2063","6.1545","Jetée des Eaux-Vives, Quai Gustave-Ador, Les Eaux-Vives, Eaux-Vives, Genève, 1207, Schweiz/Suisse/Svizzera/Svizra"
"571","46.1774","6.1693","105, Route de Vessy, Vessy, Veyrier, Genève, 1231, Schweiz/Suisse/Svizzera/Svizra"
"572","46.1922","6.161","5, Avenue Eugène-Pittard, Florissant, Champel, Genève, 1206, Schweiz/Suisse/Svizzera/Svizra"
"573","46.2041","6.1457","CoopCity Rhône, Rue du Commerce, Cité, Genève, 1204, Schweiz/Suisse/Svizzera/Svizra"
"574","46.2187","6.1501","Avenue de France, Sécheron, Pâquis, Genève, 1202, Schweiz/Suisse/Svizzera/Svizra"
"575","46.2075","6.1518","Quai du Mont-Blanc, Les Pâquis, Pâquis, Genève, 1201, Schweiz/Suisse/Svizzera/Svizra"
"576","46.21","6.1699","1, Chemin de Plonjon, Frontenex, Eaux-Vives, Genève, 1208, Schweiz/Suisse/Svizzera/Svizra"
"577","46.2209","6.1492","Avenue de Sécheron, Sécheron, Pâquis, Genève, 1202, Schweiz/Suisse/Svizzera/Svizra"
"578","46.1995","6.153","14bis, Boulevard Helvétique, Cité, Genève, 1207, Schweiz/Suisse/Svizzera/Svizra"
"579","46.2034","6.1654","10, Avenue Théodore-Flournoy, Les Eaux-Vives, Eaux-Vives, Genève, 1208, Schweiz/Suisse/Svizzera/Svizra"
"580","46.2186","6.125","Moillebeau, Petit-Saconnex et Servette, Genève, 1209, Schweiz/Suisse/Svizzera/Svizra"
"581","46.2155","6.1788","10, Chemin de Bellefontaine, Cologny, Genève, 1223, Schweiz/Suisse/Svizzera/Svizra"
"582","46.2284","6.1397","Route de Pregny, Pâquis, Genève, 1202, Schweiz/Suisse/Svizzera/Svizra"
"583","46.2247","6.1435","Avenue de la Paix, Sécheron, Pâquis, Genève, 1202, Schweiz/Suisse/Svizzera/Svizra"
"584","46.2372","6.1442","Chemin des Chèvres, Pregny, Pregny-Chambésy, Genève, 1292, Schweiz/Suisse/Svizzera/Svizra"
"585","46.2282","6.1307","Rue Michelle-Nicod, Pâquis, Genève, 1209, Schweiz/Suisse/Svizzera/Svizra"
"586","46.2343","6.15","232, Route de Lausanne, Pregny, Pregny-Chambésy, Genève, 1292, Schweiz/Suisse/Svizzera/Svizra"
"587","46.2053","6.1418","Le Paradis, Quai Turettini, Grottes et Saint-Gervais, Genève, 1201, Schweiz/Suisse/Svizzera/Svizra"
"588","46.2125","6.1138","12l, Chemin de-Maisonneuve, Le Bouchet, Châtelaine, Vernier, Genève, 1220, Schweiz/Suisse/Svizzera/Svizra"
"589","46.1933","6.1165","Avenue du Petit-Lancy, Petit-Lancy, Lancy, Genève, 1213, Schweiz/Suisse/Svizzera/Svizra"
"590","46.2113","6.1497","7, Rue Abraham-Gevray, Les Pâquis, Pâquis, Genève, 1201, Schweiz/Suisse/Svizzera/Svizra"
"591","46.189","6.1155","44, Route de Chancy, Petit-Lancy, Lancy, Genève, 1213, Schweiz/Suisse/Svizzera/Svizra"
"592","46.1979","6.1546","15, Rue Charles-Galland, Cité, Genève, 1206, Schweiz/Suisse/Svizzera/Svizra"
"593","46.2059","6.1471","Pont des Bergues, Ile Jean-Jacques Rousseau, Grottes et Saint-Gervais, Genève, 1204, Schweiz/Suisse/Svizzera/Svizra"
"594","46.2048","6.1744","Route de Frontenex, Frontenex, Eaux-Vives, Genève, 1208, Schweiz/Suisse/Svizzera/Svizra"
"595","46.2113","6.1312","38, Rue Liotard, Grottes et Saint-Gervais, Genève, 1211, Schweiz/Suisse/Svizzera/Svizra"
"596","46.1691","6.1531","Chemin Aloys-Pictet, Vessy, Veyrier, Genève, 1256, Schweiz/Suisse/Svizzera/Svizra"
"597","46.2096","6.1581","Les Pâquis, Quai Gustave-Ador, Les Eaux-Vives, Eaux-Vives, Genève, 1207, Schweiz/Suisse/Svizzera/Svizra"
"598","46.2003","6.1372","Caserne des Pompiers 1, 11, Rue du Vieux-Billard, Jonction, Genève, 1205, Schweiz/Suisse/Svizzera/Svizra"
"599","46.2201","6.1486","8, Rue Gustave Moynier, Sécheron, Pâquis, Genève, 1202, Schweiz/Suisse/Svizzera/Svizra"
"600","46.2165","6.1432","Rue du Valais, Sécheron, Pâquis, Genève, 1202, Schweiz/Suisse/Svizzera/Svizra"
"601","46.2035","6.1524","34, Quai du Général-Guisan, Cité, Genève, 1204, Schweiz/Suisse/Svizzera/Svizra"
"602","46.1908","6.1387","19, Rue Caroline, Les Acacias, Acacias, Genève, 1227, Schweiz/Suisse/Svizzera/Svizra"
"603","46.2303","6.1585","Chambésy, Pregny-Chambésy, Genève, 1292, Schweiz/Suisse/Svizzera/Svizra"
"604","46.1913","6.1321","15, Rue Eugène-Marziano, Les Acacias, Acacias, Genève, 1227, Schweiz/Suisse/Svizzera/Svizra"
"605","46.2317","6.1595","Chambésy, Pregny-Chambésy, Genève, 1292, Schweiz/Suisse/Svizzera/Svizra"
"606","46.2085","6.1785","5, Chemin Le-Fort, Cologny, Genève, 1223, Schweiz/Suisse/Svizzera/Svizra"
"607","46.1816","6.1653","Chemin du Pacage, Vessy, Veyrier, Genève, 1231, Schweiz/Suisse/Svizzera/Svizra"
"608","46.2345","6.157","Chambésy, Pregny-Chambésy, Genève, 1292, Schweiz/Suisse/Svizzera/Svizra"
"609","46.1948","6.1121","Avenue des Grandes-Communes, Petit-Lancy, Lancy, Genève, 1213, Schweiz/Suisse/Svizzera/Svizra"
"610","46.2079","6.1164","Chemin des Sports, Saint-Jean et Charmilles, Genève, 1203, Schweiz/Suisse/Svizzera/Svizra"
"611","46.2014","6.1262","Ancien siège social des TPG et de la CGTE, 17, Avenue de la Jonction, Dépôt TPG de La Jonction, Jonction, Genève, 8973, Schweiz/Suisse/Svizzera/Svizra"
"612","46.2191","6.1666","Port Tunnel, Cologny, Genève, 1223, Schweiz/Suisse/Svizzera/Svizra"
"613","46.2252","6.1608","Sécheron, Pâquis, Genève, 1202, Schweiz/Suisse/Svizzera/Svizra"
"614","46.1713","6.1571","33, Chemin de Place-Verte, Vessy, Veyrier, Genève, 1234, Schweiz/Suisse/Svizzera/Svizra"
"615","46.2247","6.1695","Port Tunnel, Cologny, Genève, 1223, Schweiz/Suisse/Svizzera/Svizra"
"616","46.226","6.1597","Chambésy, Pregny-Chambésy, Genève, 1292, Schweiz/Suisse/Svizzera/Svizra"
"617","46.1962","6.1699","Chemin de la Boisserette, Les Eaux-Vives, Eaux-Vives, Genève, 1208, Schweiz/Suisse/Svizzera/Svizra"
"618","46.2052","6.1301","45, Rue de Saint-Jean, Saint-Jean et Charmilles, Genève, 8973, Schweiz/Suisse/Svizzera/Svizra"
"619","46.1917","6.1514","Chemin Thury, Champel, Genève, 1206, Schweiz/Suisse/Svizzera/Svizra"
"620","46.1856","6.1682","Centre Sportif de Vessy, Route de Vessy, Vessy, Veyrier, Genève, 1206, Schweiz/Suisse/Svizzera/Svizra"
"621","46.1876","6.138","Espace de Pratique instrumentale (EPI), 6, Rue des Pervenches, La Praille, Carouge, Genève, 1227, Schweiz/Suisse/Svizzera/Svizra"
"622","46.1694","6.137","Route de la Chapelle, Grand-Lancy, Lancy, Genève, 1256, Schweiz/Suisse/Svizzera/Svizra"
"623","46.2326","6.1326","Avenue Appia, Chambésy, Pregny-Chambésy, Genève, 1218, Schweiz/Suisse/Svizzera/Svizra"
"767","46.2076","6.1633","95, Rue des Eaux-Vives, Les Eaux-Vives, Eaux-Vives, Genève, 1207, Schweiz/Suisse/Svizzera/Svizra"
"768","46.2017","6.153","1, Rond-Point de Rive, Les Eaux-Vives, Eaux-Vives, Genève, 1204, Schweiz/Suisse/Svizzera/Svizra"
"771","46.2126","6.1431","Rue des Gares, Grottes et Saint-Gervais, Genève, 1201, Schweiz/Suisse/Svizzera/Svizra"
"772","46.2187","6.1216","Chemin Charles-Georg, Le Petit-Saconnex, Petit-Saconnex et Servette, Genève, 1209, Schweiz/Suisse/Svizzera/Svizra"
